{
  "cities": [
    {
      "cityName": "Lisbon",
      "country": "Portugal",
      "emoji": "ðŸ‡µðŸ‡¹",
      "date": "2027-10-31T15:59:59.138Z",
      "notes": "My favorite city so far!",
      "position": {
        "lat": 38.727881642324164,
        "lng": -9.140900099907554
      },
      "id": "73930385"
    },
    {
      "cityName": "Madrid",
      "country": "Spain",
      "emoji": "ðŸ‡ªðŸ‡¸",
      "date": "2027-07-15T08:22:53.976Z",
      "notes": "",
      "position": {
        "lat": 40.46635901755316,
        "lng": -3.7133789062500004
      },
      "id": "17806751"
    },
    {
      "cityName": "Berlin",
      "country": "Germany",
      "emoji": "ðŸ‡©ðŸ‡ª",
      "date": "2027-02-12T09:24:11.863Z",
      "notes": "Amazing ðŸ˜ƒ",
      "position": {
        "lat": 52.53586782505711,
        "lng": 13.376933665713324
      },
      "id": "98443197"
    },
    {
      "id": "0e85",
      "cityName": "Castello de la Plana",
      "country": "Spain",
      "emoji": "ðŸ‡ªðŸ‡¸",
      "date": "2024-01-17T13:39:46.361Z",
      "notes": "test",
      "position": {
        "lat": "40.0218148177532",
        "lng": "-0.07827758789062501"
      }
    },
    {
      "id": "49f3",
      "cityName": "Borriol",
      "country": "Spain",
      "emoji": "ðŸ‡ªðŸ‡¸",
      "date": "2024-01-17T13:40:27.456Z",
      "notes": "fdgsdg",
      "position": {
        "lat": "40.03969997831863",
        "lng": "-0.06299972534179689"
      }
    },
    {
      "id": "11f2",
      "cityName": "Castello de la Plana",
      "country": "Spain",
      "emoji": "ðŸ‡ªðŸ‡¸",
      "date": "2024-01-17T13:41:58.984Z",
      "notes": "",
      "position": {
        "lat": "39.98787233376213",
        "lng": "-0.03158569335937501"
      }
    },
    {
      "id": "be0e",
      "cityName": "Castello de la Plana",
      "country": "Spain",
      "emoji": "ðŸ‡ªðŸ‡¸",
      "date": "2024-01-17T13:42:15.498Z",
      "notes": "",
      "position": {
        "lat": "39.98787233376213",
        "lng": "-0.03158569335937501"
      }
    },
    {
      "id": "b508",
      "cityName": "Teonda",
      "country": "India",
      "emoji": "ðŸ‡®ðŸ‡³",
      "date": "2024-01-17T13:42:51.207Z",
      "notes": "lllllll",
      "position": {
        "lat": "23.845797621133237",
        "lng": "78.22265625000001"
      }
    },
    {
      "id": "5db3",
      "cityName": "Teonda",
      "country": "India",
      "emoji": "ðŸ‡®ðŸ‡³",
      "date": "2024-01-17T13:44:21.390Z",
      "notes": "",
      "position": {
        "lat": "23.845797621133237",
        "lng": "78.22265625000001"
      }
    },
    {
      "id": "0d0e",
      "cityName": "Teonda",
      "country": "India",
      "emoji": "ðŸ‡®ðŸ‡³",
      "date": "2024-01-17T13:44:30.215Z",
      "notes": "",
      "position": {
        "lat": "23.845797621133237",
        "lng": "78.22265625000001"
      }
    },
    {
      "id": "75e7",
      "cityName": "Basoda",
      "country": "India",
      "emoji": "ðŸ‡®ðŸ‡³",
      "date": "2024-01-17T13:44:48.854Z",
      "notes": "",
      "position": {
        "lat": "23.874993085826773",
        "lng": "78.16617965698244"
      }
    },
    {
      "id": "2868",
      "cityName": "Basoda",
      "country": "India",
      "emoji": "ðŸ‡®ðŸ‡³",
      "date": "2024-01-17T13:47:05.373Z",
      "notes": "",
      "position": {
        "lat": "23.874993085826773",
        "lng": "78.16617965698244"
      }
    },
    {
      "id": "ce1f",
      "cityName": "Basoda",
      "country": "India",
      "emoji": "ðŸ‡®ðŸ‡³",
      "date": "2024-01-17T13:47:05.373Z",
      "notes": "",
      "position": {
        "lat": "23.874993085826773",
        "lng": "78.16617965698244"
      }
    },
    {
      "id": "22e1",
      "cityName": "Basoda",
      "country": "India",
      "emoji": "ðŸ‡®ðŸ‡³",
      "date": "2024-01-17T13:47:05.373Z",
      "notes": "",
      "position": {
        "lat": "23.898219358208134",
        "lng": "78.16360473632814"
      }
    },
    {
      "id": "9beb",
      "cityName": "Castello de la Plana",
      "country": "Spain",
      "emoji": "ðŸ‡ªðŸ‡¸",
      "date": "2024-01-17T13:48:01.496Z",
      "notes": "",
      "position": {
        "lat": "40.00787293287693",
        "lng": "0.018539428710937503"
      }
    },
    {
      "id": "5956",
      "cityName": "Castello de la Plana",
      "country": "Spain",
      "emoji": "ðŸ‡ªðŸ‡¸",
      "date": "2024-01-17T13:52:26.694Z",
      "notes": "",
      "position": {
        "lat": "40.01365677476705",
        "lng": "0.0020599365234375004"
      }
    },
    {
      "id": "6bda",
      "cityName": "Castello de la Plana",
      "country": "Spain",
      "emoji": "ðŸ‡ªðŸ‡¸",
      "date": "2024-01-17T13:52:26.694Z",
      "notes": "",
      "position": {
        "lat": "40.05494829583413",
        "lng": "-0.009613037109375002"
      }
    },
    {
      "id": "f1d2",
      "cityName": "Borriol",
      "country": "Spain",
      "emoji": "ðŸ‡ªðŸ‡¸",
      "date": "2024-01-17T13:52:26.694Z",
      "notes": "",
      "position": {
        "lat": "40.07109289912578",
        "lng": "-0.04669189453125001"
      }
    },
    {
      "id": "7502",
      "cityName": "Borriol",
      "country": "Spain",
      "emoji": "ðŸ‡ªðŸ‡¸",
      "date": "2024-01-17T13:52:26.694Z",
      "notes": "",
      "position": {
        "lat": "40.07109289912578",
        "lng": "-0.04669189453125001"
      }
    },
    {
      "id": "62e3",
      "cityName": "Borriol",
      "country": "Spain",
      "emoji": "ðŸ‡ªðŸ‡¸",
      "date": "2024-01-17T13:52:26.694Z",
      "notes": "",
      "position": {
        "lat": "40.07109289912578",
        "lng": "-0.04669189453125001"
      }
    },
    {
      "id": "2b3c",
      "cityName": "Borriol",
      "country": "Spain",
      "emoji": "ðŸ‡ªðŸ‡¸",
      "date": "2024-01-17T13:52:26.694Z",
      "notes": "",
      "position": {
        "lat": "40.07109289912578",
        "lng": "-0.04669189453125001"
      }
    },
    {
      "id": "04c6",
      "cityName": "Borriol",
      "country": "Spain",
      "emoji": "ðŸ‡ªðŸ‡¸",
      "date": "2024-01-17T13:52:26.694Z",
      "notes": "",
      "position": {
        "lat": "40.07109289912578",
        "lng": "-0.04669189453125001"
      }
    },
    {
      "id": "a597",
      "cityName": "Borriol",
      "country": "Spain",
      "emoji": "ðŸ‡ªðŸ‡¸",
      "date": "2024-01-17T13:52:26.694Z",
      "notes": "",
      "position": {
        "lat": "40.07109289912578",
        "lng": "-0.04669189453125001"
      }
    },
    {
      "id": "ae49",
      "cityName": "Borriol",
      "country": "Spain",
      "emoji": "ðŸ‡ªðŸ‡¸",
      "date": "2024-01-17T13:52:26.694Z",
      "notes": "",
      "position": {
        "lat": "40.07109289912578",
        "lng": "-0.04669189453125001"
      }
    },
    {
      "id": "efa5",
      "cityName": "Borriol",
      "country": "Spain",
      "emoji": "ðŸ‡ªðŸ‡¸",
      "date": "2024-01-17T13:52:26.694Z",
      "notes": "",
      "position": {
        "lat": "40.07109289912578",
        "lng": "-0.04669189453125001"
      }
    },
    {
      "id": "92dd",
      "cityName": "Borriol",
      "country": "Spain",
      "emoji": "ðŸ‡ªðŸ‡¸",
      "date": "2024-01-17T13:52:26.694Z",
      "notes": "",
      "position": {
        "lat": "40.07109289912578",
        "lng": "-0.04669189453125001"
      }
    },
    {
      "id": "6b8c",
      "cityName": "Borriol",
      "country": "Spain",
      "emoji": "ðŸ‡ªðŸ‡¸",
      "date": "2024-01-17T13:52:26.694Z",
      "notes": "",
      "position": {
        "lat": "40.07109289912578",
        "lng": "-0.04669189453125001"
      }
    },
    {
      "id": "4996",
      "cityName": "Borriol",
      "country": "Spain",
      "emoji": "ðŸ‡ªðŸ‡¸",
      "date": "2024-01-17T13:52:26.694Z",
      "notes": "",
      "position": {
        "lat": "40.07109289912578",
        "lng": "-0.04669189453125001"
      }
    },
    {
      "id": "e205",
      "cityName": "Borriol",
      "country": "Spain",
      "emoji": "ðŸ‡ªðŸ‡¸",
      "date": "2024-01-17T13:52:26.694Z",
      "notes": "",
      "position": {
        "lat": "40.07109289912578",
        "lng": "-0.04669189453125001"
      }
    },
    {
      "id": "c77b",
      "cityName": "Useras",
      "country": "Spain",
      "emoji": "ðŸ‡ªðŸ‡¸",
      "date": "2024-01-17T13:52:26.694Z",
      "notes": "kkkkkkkkkkkkkkkkkkkkkkkkkkkkkkkkkkkkkkkkkkkkkkkkkkkkkkkkkkkkkkkkkkk",
      "position": {
        "lat": "40.12966502773659",
        "lng": "-0.12033462524414064"
      }
    },
    {
      "id": "6c10",
      "cityName": "Vilafames",
      "country": "Spain",
      "emoji": "ðŸ‡ªðŸ‡¸",
      "date": "2024-01-17T13:54:37.334Z",
      "notes": "",
      "position": {
        "lat": "40.11335935461432",
        "lng": "-0.07741928100585939"
      }
    },
    {
      "id": "2cd9",
      "cityName": "Vilafames",
      "country": "Spain",
      "emoji": "ðŸ‡ªðŸ‡¸",
      "date": "2024-01-17T13:55:16.898Z",
      "notes": "",
      "position": {
        "lat": "40.11335935461432",
        "lng": "-0.07741928100585939"
      }
    }
  ]
}