{
  "cities": [
    {
      "cityName": "Lisbon",
      "country": "Portugal",
      "emoji": "ðŸ‡µðŸ‡¹",
      "date": "2027-10-31T15:59:59.138Z",
      "notes": "My favorite city so far!",
      "position": {
        "lat": 38.727881642324164,
        "lng": -9.140900099907554
      },
      "id": 73930385
    },
    {
      "cityName": "Madrid",
      "country": "Spain",
      "emoji": "ðŸ‡ªðŸ‡¸",
      "date": "2027-07-15T08:22:53.976Z",
      "notes": "",
      "position": {
        "lat": 40.46635901755316,
        "lng": -3.7133789062500004
      },
      "id": 17806751
    },
    {
      "cityName": "Berlin",
      "country": "Germany",
      "emoji": "ðŸ‡©ðŸ‡ª",
      "date": "2027-02-12T09:24:11.863Z",
      "notes": "Amazing ðŸ˜ƒ",
      "position": {
        "lat": 52.53586782505711,
        "lng": 13.376933665713324
      },
      "id": 98443197
    },
    {
      "cityName": "Castello de la Plana",
      "country": "Spain",
      "emoji": "ðŸ‡ªðŸ‡¸",
      "date": "2024-01-06T03:32:18.100Z",
      "notes": "",
      "position": {
        "lat": "40.02117322806479",
        "lng": "-0.05580616667331784"
      },
      "id": 98443198
    },
    {
      "cityName": "Castello de la Plana",
      "country": "Spain",
      "emoji": "ðŸ‡ªðŸ‡¸",
      "date": "2024-01-06T03:32:41.604Z",
      "notes": "dgdsg",
      "position": {
        "lat": "40.02117322806479",
        "lng": "-0.05580616667331784"
      },
      "id": 98443199
    },
    {
      "cityName": "l'Alcora",
      "country": "Spain",
      "emoji": "ðŸ‡ªðŸ‡¸",
      "date": "2024-01-06T03:36:00.873Z",
      "notes": "hjghj",
      "position": {
        "lat": "40.08240469537056",
        "lng": "-0.17372131347656253"
      },
      "id": 98443200
    },
    {
      "cityName": "Kolkata",
      "country": "India",
      "emoji": "ðŸ‡®ðŸ‡³",
      "date": "2024-01-06T03:38:42.333Z",
      "notes": "TEST 2",
      "position": {
        "lat": "22.53730518063729",
        "lng": "88.39118957519531"
      },
      "id": 98443201
    }
  ]
}